[{"id":"AQC00914000","latitude":"-14.3167","longitude":"-170.7667","elevation":"408.4","state":"AS","name":"AASUFOU","gsnFlag":"","hcnFlag":"","wmoId":"","method":""},{"id":"AQW00061705","latitude":"-14.3306","longitude":"-170.7136","elevation":"3.7","state":"AS","name":"PAGO PAGO WSO AP","gsnFlag":"GSN","hcnFlag":"","wmoId":"91765","method":""},{"id":"CAW00064757","latitude":"44.2325","longitude":"-79.7811","elevation":"246.0","state":"ON","name":"EGBERT 1 W","gsnFlag":"","hcnFlag":"","wmoId":"","method":""},{"id":"CQC00914080","latitude":"15.2136","longitude":"145.7497","elevation":"252.1","state":"MP","name":"CAPITOL HILL 1","gsnFlag":"","hcnFlag":"","wmoId":"","method":""},{"id":"CQC00914801","latitude":"14.1717","longitude":"145.2428","elevation":"179.2","state":"MP","name":"ROTA AP","gsnFlag":"","hcnFlag":"","wmoId":"91221","method":""},{"id":"CQC00914855","latitude":"15.1189","longitude":"145.7294","elevation":"65.5","state":"MP","name":"SAIPAN INTL AP","gsnFlag":"","hcnFlag":"","wmoId":"91232","method":""},{"id":"CQC00914874","latitude":"15.0000","longitude":"145.6333","elevation":"81.7","state":"MP","name":"TINIAN","gsnFlag":"","hcnFlag":"","wmoId":"91231","method":""},{"id":"FMC00914213","latitude":"9.4508","longitude":"138.0620","elevation":"15.2","state":"FM","name":"GILMAN","gsnFlag":"","hcnFlag":"","wmoId":"","method":""},{"id":"FMC00914325","latitude":"1.0833","longitude":"154.8000","elevation":"2.7","state":"FM","name":"KAPINGAMARANGI","gsnFlag":"","hcnFlag":"","wmoId":"","method":""},{"id":"FMC00914395","latitude":"5.3544","longitude":"162.9533","elevation":"2.1","state":"FM","name":"KOSRAE","gsnFlag":"","hcnFlag":"","wmoId":"91355","method":""}]